id,name,latitude,longitude,earthquake_risk,flood_risk
1,Basilica of San Vitale,44.4195,12.196,6,2
2,Mausoleum of Galla Placidia,44.4204,12.1964,4,3
3,Neonian Baptistery,44.4185,12.1974,1,7
4,Basilica of Sant'Apollinare Nuovo,44.4189,12.1995,3,1
5,Basilica of Sant'Apollinare in Classe,44.3738,12.2546,7,5