name,latitude,longitude,value
Basilica of San Vitale,44.4195,12.196,6
Mausoleum of Galla Placidia,44.4204,12.1964,4
Neonian Baptistery,44.4185,12.1974,1
Basilica of Sant'Apollinare Nuovo,44.4189,12.1995,3
Basilica of Sant'Apollinare in Classe,44.3738,12.2546,7
